Nord,Oest,Longitude,Latitude,Navn
6517997.89,318027.13,5.85343694,58.76355133,Edlandshagen - Perlå
6518582.24,330808.16,6.07365238,58.77399128,Brekko 
6524807.22,331215.74,6.07599431,58.82998423,Uburhedlaren - gapahuk
6513286.06,324888.43,5.97555769,58.72413115,Kyllingstad badeplass
6517253.15,330217.39,6.06445630,58.76183836,Gapahuk ved store Foretjørn
6517248.50,330626.50,6.07152279,58.76195740,Teltplass lille Foretjørn 
